,city_name,Latitude,Longitude,max_temp(fahrenheit),Cloudiness,Humidity(%),Wind
0,White Cliffs,-30.85,143.0833,79.07,76,38,2.11
1,Tibooburra,-29.4334,142.0167,82.544,8,39,2.26
2,Wanaaring,-29.7001,144.15,82.67,0,36,2.68
3,Bjurholm,63.9303,19.2137,32.0,90,94,1.5
4,Vaennaes,63.9068,19.7571,32.0,90,93,1.5
5,Vannasby,63.9333,19.8333,32.0,90,93,1.5
6,Vindeln,64.2018,19.7194,32.0,90,93,1.5
7,Mullsjo,63.7,19.7,32.0,90,81,1.5
8,Nordmaling,63.5685,19.5024,32.0,90,100,2.1
9,Hoernefors,63.6231,19.9086,32.0,90,81,1.5
10,Roback,63.8116,20.1833,32.0,90,97,1.5
11,Hälsingfors,64.55,18.7,26.6,76,92,1.11
12,Umeå Kommun,63.8299,20.2548,32.0,90,97,1.5
13,Umea,63.8284,20.2597,32.0,90,97,1.5
14,Ersmark,63.8833,20.3167,32.0,90,97,1.5
15,Ön,63.8079,20.2866,32.0,90,97,1.5
16,Berghem,63.8285,20.3041,32.0,90,97,1.5
17,Gidböle,63.4,19.05,30.2,90,100,2.1
18,Lycksele,64.5954,18.6735,26.6,76,92,1.11
19,Obbola,63.7,20.3167,32.0,90,97,1.5
20,Holmsund,63.706,20.3641,32.0,90,97,1.5
21,Husum,63.3333,19.1667,30.2,90,100,2.1
22,Lövön,63.7167,20.3833,32.0,90,97,1.5
23,Ratanada,26.281,73.0293,68.324,0,40,0.26
24,Jodhpur,26.2867,73.03,68.324,0,40,0.26
25,Fedūsar,26.3333,73.0333,68.324,0,40,0.26
26,Pali,25.7667,73.3333,71.564,0,35,3.18
27,Samdari,25.8167,72.5833,70.43,20,39,1.46
28,Sojat,25.9167,73.6667,72.86,0,32,3.68
29,Pipar,26.3856,73.5378,67.69399999999999,0,40,1.36
30,Siwana,25.6333,72.4167,70.43,20,39,1.46
31,Bilara,26.1792,73.7056,67.69399999999999,0,40,1.36
32,Takhatgarh,25.3333,73.0,73.4,8,35,3.93
33,Rani,25.3503,73.3089,73.4,8,35,3.93
34,Balotra,25.8333,72.2333,72.68,36,41,1.68
35,Jalor,25.35,72.6167,74.48,20,39,3.71
36,Sheoganj,25.15,73.0667,73.4,8,35,3.93
37,Bali,25.1833,73.2833,73.4,8,35,3.93
38,Jaitaran,26.2031,73.9364,67.69399999999999,0,40,1.36
39,Desuri,25.2833,73.5667,67.064,0,40,2.91
40,State of Rājasthān,26.0,74.0,72.86,0,32,3.68
41,Sadri,25.1833,73.4333,73.4,8,35,3.93
42,Nimaj,26.1497,74.0,67.69399999999999,0,40,1.36
43,Yongfu,25.004,109.9819,75.2,90,73,4.0
44,Qingtang,25.2106,110.0478,75.2,90,73,4.0
45,Lingui,25.245,110.2044,75.2,90,73,4.0
46,Guilin,25.2819,110.2864,75.2,90,73,4.0
47,Yangshuo,24.7808,110.4897,75.2,90,73,4.0
48,Lingchuan,25.4095,110.3228,75.2,90,73,4.0
49,Luzhai,24.4975,109.7331,69.44,92,80,2.81
50,Rongan,25.2333,109.3833,75.2,90,73,4.0
51,Licheng,24.5065,110.3892,70.88,80,82,1.28
52,Rongshui,25.0667,109.25,68.45,80,82,3.38
53,Pingle,24.6452,110.6431,70.88,80,82,1.28
54,Luorong,24.4058,109.6086,69.44,92,80,2.81
55,Gongcheng,24.8333,110.8167,70.52,80,69,1.81
56,Dabu,24.6674,109.2355,69.314,92,90,4.73
57,Longsheng,25.7936,110.0092,75.2,90,73,4.0
58,Xingan,25.6196,110.6425,68.774,48,72,1.33
59,Guyi,25.7778,109.6003,71.744,48,64,2.56
60,Jinxiu,24.1372,110.1801,68.0,56,82,1.71
61,Cushijiang,25.0814,110.9703,71.564,80,65,1.28
62,Liuzhou,24.3126,109.3892,69.314,92,90,4.73
63,Verkhoyansk,67.5447,133.385,9.95,76,80,2.16
64,Batagay,67.6333,134.6333,12.829999999999998,56,77,3.26
65,Owaka,-46.4501,169.6667,62.69,0,55,9.36
66,Balclutha,-46.2339,169.75,62.69,0,55,9.36
67,Otara,-46.6334,168.8833,59.09,76,92,13.36
68,Milton,-46.1209,169.9694,62.69,0,55,9.36
69,Clutha District,-46.0389,169.6062,62.69,0,55,9.36
70,Wyndham,-46.3334,168.85,62.78,0,61,8.11
71,Momona,-45.9167,170.2167,60.980000000000004,0,84,8.06
72,Mosgiel,-45.875,170.3472,64.85,0,45,2.73
73,Gore,-46.1029,168.9436,61.61,0,56,8.56
74,Otago,-45.8845,170.5111,64.85,0,45,2.73
75,Dunedin,-45.8742,170.5036,64.85,0,45,2.73
76,Woodlands,-46.3667,168.55,62.78,0,61,8.11
77,Bluff,-46.6,168.3333,59.09,76,92,13.36
78,Invercargill City,-46.4879,168.37,62.78,0,61,8.11
79,Waverley,-46.3885,168.3801,62.78,0,61,8.11
80,Invercargill,-46.4001,168.35,62.78,0,61,8.11
81,Avenal,-46.3985,168.3401,62.78,0,61,8.11
82,Waitati,-45.75,170.5667,64.85,0,45,2.73
83,Warrington,-45.7167,170.5833,64.85,0,45,2.73
84,Farellones,-33.3,-70.25,75.2,0,33,6.7
85,Villa Paulina,-33.2667,-70.3001,75.2,0,33,6.7
86,La Ermita,-33.3667,-70.4001,75.2,0,33,6.7
87,Los Andes,-32.8337,-70.5983,75.2,0,33,6.7
88,Lo Barnechea,-33.35,-70.5167,75.2,0,33,6.7
89,Las Condes,-33.3667,-70.5167,75.2,0,33,6.7
90,Baños de Colina,-33.2001,-70.6334,75.2,0,33,6.7
91,Casas de Chacabuco,-33.0334,-70.6834,75.2,0,33,6.7
92,Los Ranchillos,-32.9501,-70.7,75.2,0,33,6.7
93,San Fernando,-32.75,-70.6501,75.2,0,33,6.7
94,Colina,-33.2001,-70.6834,75.2,0,33,6.7
95,Huechún,-33.0834,-70.75,75.2,0,33,6.7
96,Vitacura,-33.4001,-70.6,75.2,0,33,6.7
97,La Reina,-33.4501,-70.5501,75.2,0,33,6.7
98,Provincia de Santiago,-33.3334,-70.6667,75.2,0,33,6.7
99,Peñalolén,-33.4834,-70.5334,75.2,0,33,6.7
100,San Felipe,-32.75,-70.7334,75.2,0,33,6.7
101,"Villa Presidente Frei, Nunoa, Santiago, Chile",-33.4607,-70.5803,75.2,0,33,6.7
102,Recoleta,-33.4089,-70.6364,75.2,0,33,6.7
103,Providencia,-33.4334,-70.6167,75.2,0,33,6.7
104,Saowi,-0.9,134.0333,68.18,68,78,0.56
105,Manokwari,-0.8667,134.0833,82.58000000000001,56,100,1.48
106,Provinsi Papua Barat,-2.0834,132.8333,78.08000000000001,68,87,1.26
107,Bria,6.5423,21.9863,68.594,12,93,1.28
108,Pendé,6.516,21.9862,68.594,12,93,1.28
109,Africa,7.1881,21.0938,71.114,48,94,1.56
110,Central African Republic,7.0,21.0,71.114,48,94,1.56
111,Préfecture de la Haute-Kotto,7.0,23.0,69.08000000000001,0,94,1.28
112,Ippy,6.2679,21.2247,71.50999999999999,44,94,1.28
113,Youhamba,7.2333,20.95,71.114,48,94,1.56
114,Ouadda,8.0777,22.4007,71.15,76,93,1.93
115,Sennoy,52.1509,46.9631,32.81,80,97,3.28
116,Shikhany,52.1167,47.2167,32.594,92,96,1.68
117,Voskresenskoye,51.8248,46.9351,33.8,90,99,2.0
118,Podlesnoye,51.8161,47.009,31.226,76,99,2.61
119,Volsk,52.0333,47.3833,32.594,92,96,1.68
120,Marks,51.7111,46.7486,33.8,90,99,2.0
121,Khvatovka,52.3524,46.5628,32.81,80,97,3.28
122,Bazarnyy Karabulak,52.2683,46.4144,32.72,64,97,3.93
123,Cherkasskoye,52.4333,47.2167,32.594,92,96,1.68
124,Budënnovka,51.5213,47.0001,33.8,90,99,2.0
125,Balakovo,52.0278,47.8007,31.676,92,95,2.03
126,Saratovskaya Oblast',51.5,47.0,33.8,90,99,2.0
127,Posëlok Pyatyy,52.1833,47.7667,31.676,92,95,2.03
128,Svobodnyy,52.3304,46.3712,32.72,64,97,3.93
129,Krasnyy Yar,51.6292,46.4217,33.8,90,96,2.0
130,Baltay,52.4652,46.6308,32.81,80,97,3.28
131,Belogornoye,52.3971,47.5808,32.594,92,96,1.68
132,Apalikha,52.315,47.7155,31.676,92,95,2.03
133,Burovka,52.4702,47.4499,32.594,92,96,1.68
134,Burovka,52.4553,47.5025,32.594,92,96,1.68
135,Lewiston,41.9758,-111.8564,60.8,75,29,1.5
136,Preston,42.0963,-111.8767,60.8,75,29,1.5
137,Richmond,41.9227,-111.8136,60.8,75,29,1.5
138,Smithfield,41.8383,-111.8328,60.8,75,29,1.5
139,Benson,41.7874,-111.9303,60.8,75,29,1.5
140,Hyde Park,41.7988,-111.8192,60.8,75,29,1.5
141,Greenville,41.7663,-111.8483,60.8,75,29,1.5
142,Malad City,42.1916,-112.2509,60.8,75,29,1.5
143,North Logan,41.7694,-111.8047,60.8,75,29,1.5
144,Garland,41.741,-112.1617,60.8,75,29,1.5
145,Mendon,41.7099,-111.9778,60.8,75,29,1.5
146,Logan,41.7355,-111.8344,60.8,75,29,1.5
147,River Heights,41.7216,-111.8214,60.8,75,29,1.5
148,Cache County,41.7494,-111.7503,60.8,75,29,1.5
149,Tremonton,41.7119,-112.1656,60.8,75,29,1.5
150,Providence,41.7063,-111.8172,60.8,75,29,1.5
151,Elwood,41.6905,-112.1411,60.8,75,29,1.5
152,Millville,41.6816,-111.823,60.8,75,29,1.5
153,Nibley,41.6744,-111.833,60.8,75,29,1.5
154,Wellsville,41.6385,-111.9339,60.8,75,29,1.5
155,Zuwarah,32.9312,12.082,63.41,0,86,7.13
156,Zaltan,32.947,11.8665,63.41,0,86,7.13
157,Sha‘bīyat an Nuqāţ al Khams,32.7167,11.8167,63.41,0,86,7.13
158,Sabratah,32.7933,12.4885,63.644,0,93,8.28
159,Surman,32.7567,12.5716,69.80000000000001,5,52,4.1
160,Sha‘bīyat az Zāwiyah,32.6667,12.5833,61.574,0,65,1.91
161,Az Zawiyah,32.7571,12.7276,69.80000000000001,5,52,4.1
162,Zawiya,32.7522,12.7278,69.80000000000001,5,52,4.1
163,Bin Qirdan,33.1378,11.2197,63.769999999999996,0,75,5.48
164,Zarzis,33.504,11.1122,62.6,0,82,4.6
165,Gouvernorat de Médenine,33.3333,11.0,62.6,0,82,4.6
166,Al Aziziyah,32.5319,13.0175,69.80000000000001,5,52,4.1
167,Mu‘askar Jālū,32.8667,13.1667,69.80000000000001,5,52,4.1
168,Bāb al ‘Azīzīyah,32.875,13.175,69.80000000000001,5,52,4.1
169,Sha‘bīyat Ţarābulus,32.8897,13.1847,69.80000000000001,5,52,4.1
170,Tripoli,32.8752,13.1875,69.80000000000001,5,52,4.1
171,Bin Ghashīr,32.6878,13.1739,69.80000000000001,5,52,4.1
172,Yafran,32.0633,12.5286,58.424,0,55,2.86
173,Giado,31.9582,12.0203,59.18,0,51,2.36
174,Qabīlat Awlād Dhiyāb,32.9022,13.2708,69.80000000000001,5,52,4.1
175,Bronx,42.9927,-110.1158,46.4,75,52,6.7
176,Pinedale,42.8666,-109.861,46.4,75,52,6.7
177,Sublette County,42.6999,-109.8674,46.4,75,52,6.7
178,Boulder,42.7483,-109.7177,46.4,75,52,6.7
179,Marbleton,42.5536,-110.1094,46.4,75,52,6.7
180,Jack Pine,43.3261,-110.4341,37.4,90,69,6.2
181,Hoback,43.2819,-110.7839,39.2,90,69,7.2
182,South Park,43.4222,-110.7933,39.2,90,69,7.2
183,Rafter J Ranch,43.426,-110.7991,39.2,90,69,7.2
184,Jackson,43.4799,-110.7625,39.2,90,69,7.2
185,Afton,42.7249,-110.9319,46.4,1,36,10.8
186,Moose Wilson Road,43.5252,-110.8447,39.2,90,69,7.2
187,Wilson,43.5008,-110.8753,39.2,90,69,7.2
188,Fort Washakie,43.0064,-108.8824,55.400000000000006,90,48,8.7
189,Moose,43.6558,-110.7183,39.2,90,69,7.2
190,Ethete,43.025,-108.7727,55.400000000000006,90,48,8.7
191,Lander,42.833,-108.7307,55.400000000000006,90,48,8.7
192,Fremont County,42.9166,-108.6674,55.400000000000006,90,48,8.7
193,The String,43.5846,-111.0886,51.8,90,69,7.2
194,Victor,43.6027,-111.1114,51.8,90,69,7.2
195,Urucui,-7.2295,-44.5562,72.19399999999999,56,98,1.88
196,Itaueira,-7.6034,-43.0256,72.374,20,96,1.91
197,Canto do Buriti,-8.11,-42.9445,72.644,20,97,1.38
198,Bom Jesus,-9.0745,-44.3587,72.32,12,98,1.73
199,Calicut,11.25,75.7667,80.6,40,83,1.23
200,Beypore,11.1833,75.8167,80.6,40,83,1.23
201,Badagara,11.6,75.5833,80.6,40,83,1.23
202,Ferokh,11.1833,75.85,80.6,40,83,1.23
203,Mahe,11.7,75.5333,73.75999999999999,0,99,1.43
204,Dharmadam,11.7833,75.4333,73.75999999999999,0,99,1.43
205,Tirur,10.9,75.9167,80.6,40,83,1.03
206,Kunnamangalam,11.3046,75.8777,80.6,40,83,1.23
207,Mulappilangad,11.8,75.45,73.75999999999999,0,99,1.43
208,Thalassery,11.75,75.5333,73.75999999999999,0,99,1.43
209,Cannanore,11.8675,75.3576,73.75999999999999,0,99,1.43
210,Ponnani,10.767,75.9252,80.6,40,83,1.03
211,Mavoor,11.2667,75.9167,80.6,40,83,1.16
212,Nadapuram,11.7,75.6667,73.75999999999999,0,99,1.43
213,Kondotti,11.15,75.9667,80.6,40,83,1.16
214,Valapattanam,11.9,75.3667,73.75999999999999,0,99,1.43
215,Pappinisseri,11.95,75.35,73.75999999999999,0,99,1.43
216,Malappuram,11.0667,76.0667,80.6,40,83,1.03
217,Mattanur,11.9167,75.5833,73.75999999999999,0,99,1.43
218,Guruvayur,10.5943,76.0411,80.6,40,83,1.03
219,Hun,29.1268,15.9477,67.91,0,24,4.83
220,Waddan,29.1614,16.139,67.91,0,24,4.83
221,Rutana,-3.9279,29.992,57.74,68,96,0.93
222,iProvense ya Rutana,-3.8667,30.1,53.6,64,91,1.16
223,Makamba,-4.1348,29.804,57.74,68,96,0.93
224,iProvense ya Makamba,-4.1667,29.7528,57.74,68,96,0.93
225,Bururi,-3.9488,29.6244,69.53,76,100,1.21
226,iProvense ya Bururi,-3.85,29.6333,59.36,76,100,1.36
227,Republic of Burundi,-3.5,30.0,53.6,64,91,1.16
228,iProvense ya Gitega,-3.5,29.95,53.6,64,91,1.16
229,Mwaro,-3.5272,29.7034,53.6,64,91,1.16
230,Rumonge,-3.9736,29.4386,69.53,76,100,1.21
231,Gitega,-3.4264,29.9308,53.6,64,91,1.16
232,Ruyigi,-3.4764,30.2486,53.6,64,91,1.16
233,Kasulu,-4.5767,30.1025,62.42,88,95,1.28
234,Province de Mwaro,-3.5,29.6667,59.36,76,100,1.36
235,iProvense ya Ruyigi,-3.45,30.3167,59.72,88,93,1.23
236,Mabamba,-3.5984,30.5019,59.72,88,93,1.23
237,iProvense ya Muramvya,-3.25,29.6667,56.57,56,96,0.83
238,Kibondo,-3.5864,30.7203,59.72,88,93,1.23
239,Muramvya,-3.2683,29.6079,56.57,56,96,0.83
240,iProvense ya Karuzi,-3.125,30.1333,55.129999999999995,68,93,1.23
241,Cape Dorset,64.2338,-76.5438,21.2,20,85,6.2
242,Chernyshevskiy,63.0128,112.4714,10.076,0,67,1.23
243,Bukonyo,-1.95,32.9333,69.80000000000001,75,94,3.06
244,Muriti,-1.9834,32.9167,69.80000000000001,75,94,3.06
245,Nakatunguru,-2.1167,33.0667,69.80000000000001,75,94,1.88
246,Nansio,-2.1334,33.05,69.80000000000001,75,94,1.88
247,Ihale,-2.4334,32.9333,69.80000000000001,75,94,1.88
248,Kibara,-2.15,33.45,69.80000000000001,75,94,2.91
249,Mwanza,-2.5167,32.9,69.80000000000001,75,94,1.88
250,Nyanguge,-2.55,33.2,69.80000000000001,75,94,1.88
251,Magu Kahangara,-2.5834,33.35,69.80000000000001,75,94,2.91
252,Usagara,-2.6834,33.0,69.80000000000001,75,94,1.88
253,Mugango,-1.6834,33.7,68.27,80,100,2.46
254,Mwanza Region,-2.75,32.75,69.80000000000001,75,94,0.08
255,Missungwi,-2.85,33.0833,69.80000000000001,75,94,0.08
256,Bunda,-2.05,33.8667,68.27,80,100,2.46
257,Musoma,-1.5,33.8,68.27,80,100,2.46
258,Butiama,-1.7667,33.9667,62.024,76,98,1.21
259,Misasi,-3.0,33.0833,69.80000000000001,75,94,0.08
260,Nyamuswa,-1.9,34.0167,62.024,76,98,1.21
261,Kasamwa,-2.85,32.4333,69.80000000000001,75,94,1.33
262,Ngudu,-2.9667,33.3333,61.790000000000006,92,100,3.08
263,Barranca,-4.8334,-76.7,77.53999999999999,48,90,0.88
264,Lagunas,-5.227,-75.6753,79.43,64,84,0.93
265,Lau,9.2167,11.2833,73.13,0,56,2.06
266,Jalingo,8.8833,11.3667,73.13,0,56,2.06
267,Mutum Biyu,8.6333,10.7667,83.174,12,50,4.63
268,Gassol,8.5333,10.4667,82.94,8,58,4.73
269,Dadiya,9.6167,11.4333,69.53,0,53,0.56
270,Kaltungo,9.8142,11.3089,69.53,0,53,0.56
271,Biliri,9.8647,11.2253,69.53,0,53,0.56
272,Pindiga,9.9833,10.9333,71.15,0,53,1.36
273,Yuli,9.6989,10.2744,71.50999999999999,8,54,2.13
274,Mayo Belwa,9.05,12.05,72.01400000000001,32,56,1.28
275,Kumo,10.0447,11.2122,71.06,0,41,1.28
276,Dengi,9.3667,9.95,71.50999999999999,8,54,2.13
277,Taraba State,8.0,10.5,76.064,12,76,1.48
278,Numan,9.4667,12.0333,75.074,0,59,1.28
279,Beli,7.8587,10.9719,76.064,12,76,1.48
280,Garko,10.1751,11.1646,71.06,0,41,1.28
281,Ganye,8.4333,12.0667,69.08000000000001,44,54,1.58
282,Langtang,9.1333,9.7833,76.28,8,55,3.28
283,Plateau State,9.1667,9.75,76.28,8,55,3.28
284,Ngurore,9.2833,12.2333,72.01400000000001,32,56,1.28
285,San Antonio Oeste,-40.732,-64.9477,73.724,92,47,10.43
286,Viedma,-40.8135,-62.9967,81.5,92,29,9.81
287,Carmen de Patagones,-40.7983,-62.981,81.5,92,29,9.81
288,Doctor Rogelio Cortizo,-40.7334,-65.0334,73.724,92,47,10.43
289,General Conesa,-40.1,-64.4334,80.42,92,24,10.58
290,Sierra Grande,-41.6061,-65.3558,70.844,92,17,9.33
291,Bear Lake Sands,42.0516,-111.2536,60.8,75,29,1.5
292,Randolph,41.6658,-111.1822,60.8,90,45,13.4
293,Paris,42.2272,-111.4011,60.8,75,29,1.5
294,Bear Lake County,42.3124,-111.3136,39.29,92,86,2.46
295,Montpelier,42.3222,-111.2977,36.32,92,84,2.33
296,Kemmerer,41.7925,-110.5377,45.374,32,33,7.13
297,Richmond,41.9227,-111.8136,60.8,75,29,1.5
298,Cache County,41.7494,-111.7503,60.8,75,29,1.5
299,Lewiston,41.9758,-111.8564,60.8,75,29,1.5
300,Smithfield,41.8383,-111.8328,60.8,75,29,1.5
301,North Logan,41.7694,-111.8047,60.8,75,29,1.5
302,Hyde Park,41.7988,-111.8192,60.8,75,29,1.5
303,Preston,42.0963,-111.8767,60.8,75,29,1.5
304,River Heights,41.7216,-111.8214,60.8,75,29,1.5
305,Greenville,41.7663,-111.8483,60.8,75,29,1.5
306,Logan,41.7355,-111.8344,60.8,75,29,1.5
307,Providence,41.7063,-111.8172,60.8,75,29,1.5
308,Millville,41.6816,-111.823,60.8,75,29,1.5
309,Nibley,41.6744,-111.833,60.8,75,29,1.5
310,Benson,41.7874,-111.9303,60.8,75,29,1.5
311,Luabo,-18.3928,36.1053,72.01400000000001,0,93,0.66
312,Quelimane,-17.8787,36.8883,72.86,0,92,1.28
313,Sagaing Division,23.5,95.5,65.714,8,94,1.21
314,Shwebo,22.5667,95.7,67.28,8,94,1.33
315,Mawlaik,23.6333,94.4167,64.49000000000001,8,92,1.06
316,Monywa,22.1167,95.1333,67.00999999999999,0,96,1.28
317,Falam,22.9167,93.6833,54.464,0,92,0.91
318,Hakha,22.65,93.6167,54.464,0,92,0.91
319,Lake and Peninsula Borough,57.0006,-158.0006,33.8,1,47,5.1
320,Chignik,56.2953,-158.4023,31.73,0,87,2.36
321,Pilot Point,57.5642,-157.5792,26.6,1,73,2.6
322,Harkers Island,34.6952,-76.5594,71.6,1,88,8.2
323,Steep Pines Fork,34.7243,-76.648,71.6,1,88,8.2
324,Beaufort,34.7182,-76.6639,71.6,1,88,8.2
325,Atlantic Beach,34.6991,-76.7403,73.4,1,88,8.2
326,Morehead City,34.7229,-76.7261,73.4,1,88,8.2
327,Pine Knoll Shores,34.6974,-76.8133,73.4,1,88,8.2
328,Carteret County,34.8002,-76.6997,73.4,1,88,8.2
329,Emerald Isle,34.6779,-76.9508,78.80000000000001,75,77,6.7
330,Broad Creek,34.7207,-76.9364,78.80000000000001,75,77,6.7
331,Newport,34.7865,-76.8592,78.80000000000001,75,77,6.7
332,Cape Carteret,34.6916,-77.0631,78.80000000000001,20,69,4.6
333,Cedar Point,34.6877,-77.0725,78.80000000000001,20,69,4.6
334,Havelock,34.8791,-76.9014,78.80000000000001,75,77,6.7
335,Swansboro,34.6877,-77.1192,78.80000000000001,20,69,4.6
336,Nelms,35.0516,-76.705,71.6,75,77,6.7
337,Arapahoe,35.0257,-76.8255,73.4,75,77,6.7
338,Neuse Forest,34.9638,-76.9447,78.80000000000001,75,77,6.7
339,Sneads Ferry,34.5527,-77.3972,78.80000000000001,20,69,4.6
340,Pamlico County,35.1335,-76.7497,71.6,75,77,6.7
341,Piney Green,34.716,-77.3203,78.80000000000001,20,69,4.6
342,Tanout,14.9709,8.8879,68.324,0,18,2.38
343,Republic of Niger,16.0,8.0,69.35,0,18,2.06
344,Maradi,14.25,7.25,65.894,0,54,1.81
345,Mayahi,13.9553,7.6712,66.38,0,56,1.91
346,Tessaoua,13.7574,7.9874,66.38,0,56,1.91
347,Dakoro,14.5106,6.765,66.614,0,53,1.66
348,Prince Rupert,54.3161,-130.3202,48.2,1,39,2.6
349,Metlakatla,54.3327,-130.4368,48.2,1,39,2.6
350,Weewanie,53.6828,-128.7867,44.024,20,63,2.01
351,Kitimat,54.0524,-128.6535,41.0,40,35,2.1
352,Terrace,54.5163,-128.6035,41.0,40,35,2.1
353,Mill Bay,54.9828,-129.8869,32.09,8,77,0.93
354,Tlell,53.5662,-131.9368,44.6,32,67,5.1
355,Masset,54.0161,-132.1034,42.8,20,56,2.1
356,Gitwinksihlkw,55.1913,-129.2204,29.876,64,61,0.91
357,Sandspit,53.2426,-131.8212,44.6,32,67,5.1
358,Port Clements,53.6828,-132.1868,44.6,20,56,2.1
359,Atalaia Velha,-10.9667,-37.0667,82.4,40,74,5.1
360,Barra dos Coqueiros,-10.9089,-37.0387,82.4,40,74,5.1
361,Aracaju,-10.9112,-37.0717,82.4,40,74,5.1
362,Nossa Senhora do Socorro,-10.855,-37.1262,82.4,40,74,5.1
363,Sao Cristovao,-11.0148,-37.2064,82.4,40,74,5.1
364,Santo Amaro das Brotas,-10.7889,-37.0545,82.4,40,74,5.1
365,Barra,-11.15,-37.1667,82.4,40,74,5.1
366,Laranjeiras,-10.8064,-37.17,82.4,40,74,5.1
367,Maruim,-10.7375,-37.0817,82.4,40,74,5.1
368,Pirambu,-10.7378,-36.8562,82.4,40,74,5.1
369,Rosário do Catete,-10.6962,-37.0306,82.4,40,74,5.1
370,Carmópolis,-10.6481,-36.9889,82.4,40,74,5.1
371,Areia Branca,-10.7578,-37.3153,82.4,40,74,5.1
372,Santa Rosa de Lima,-10.6464,-37.1939,82.4,40,74,5.1
373,Japaratuba,-10.5934,-36.9403,82.4,40,74,5.1
374,Siriri,-10.6039,-37.1128,82.4,40,74,5.1
375,Malhador,-10.6578,-37.3048,82.4,40,74,5.1
376,Salgado,-11.032,-37.475,82.4,40,74,5.1
377,Capela,-10.5034,-37.0528,82.4,40,74,5.1
378,Estancia,-11.2684,-37.4384,82.4,40,74,5.1
379,Arrondissement de Saint-Laurent-du-Maroni,4.0,-53.75,75.074,76,93,1.11
380,Maripa-Village,3.6333,-54.05,72.68,76,96,1.01
381,Grand-Santi,4.25,-54.3834,75.794,48,91,1.33
382,Stoelmanseiland,4.35,-54.4167,75.794,48,91,1.33
383,Guyane,4.0,-53.0,77.144,92,85,1.13
384,Guyane,3.9989,-53.0,77.144,92,85,1.13
385,Guyane,3.9993,-52.9986,77.144,92,85,1.13
386,Apatou,5.155,-54.3473,78.17,68,77,1.91
387,Apatou,5.1567,-54.3432,78.17,68,77,1.91
388,Nalgonda,17.05,79.2667,73.03999999999999,44,71,1.11
389,Devarkonda,16.7,78.9333,73.03999999999999,44,71,1.11
390,Gudur,17.4833,78.8167,75.2,40,83,3.6
391,Bhongir,17.5108,78.8889,75.2,40,83,3.6
392,Hyderābād,17.25,78.5,75.2,40,83,3.6
393,Ghatkesar,17.4494,78.6853,75.2,40,83,3.6
394,Lal Bahadur Nagar,17.3477,78.5576,75.2,40,83,3.6
395,Mirialguda,16.8667,79.5833,71.50999999999999,20,77,1.36
396,Gaddi Annaram,17.3669,78.5242,75.2,40,83,3.6
397,Uppal Kalan,17.4058,78.5591,75.2,40,83,3.6
398,Balapur,17.3108,78.48,75.2,40,83,3.6
399,Suriapet,17.15,79.6167,73.274,56,74,3.48
400,Shamshabad,17.2519,78.4184,75.2,40,83,3.6
401,Hyderabad,17.3753,78.4744,75.2,40,83,3.6
402,Malkajgiri,17.4478,78.5263,75.2,40,83,3.6
403,Trimulgherry,17.4703,78.5167,75.2,40,83,3.6
404,Kakaguda,17.4595,78.5046,75.2,40,83,3.6
405,Macherla,16.4833,79.4333,69.53,24,72,1.43
406,Secunderabad,17.5043,78.5426,75.2,40,83,3.6
407,Quthbullapur,17.5011,78.4582,75.2,40,83,3.6
408,Région du Logone Occidental,8.7529,15.8724,82.03999999999999,48,49,4.76
409,Benoy,8.9833,16.3199,84.974,32,49,5.73
410,Bere,9.3202,16.1552,80.24000000000001,0,51,3.91
411,Kelo,9.3086,15.8066,73.544,0,56,1.71
412,Koutou-Bébo,8.6234,16.0856,81.19399999999999,0,60,5.71
413,Moundou,8.5667,16.0833,81.19399999999999,0,60,5.71
414,Lai,9.3952,16.2989,80.24000000000001,0,51,3.91
415,Bebedja,8.6761,16.566,82.094,8,59,5.78
416,Beinamar,8.6698,15.3813,81.68,8,54,5.31
417,Région du Tandjilé,9.5,16.5,80.24000000000001,0,51,3.91
418,Gounou Gaya,9.6294,15.5132,73.544,0,56,1.71
419,Région du Logone Oriental,8.25,16.42,81.19399999999999,0,60,5.71
420,Doba,8.65,16.85,82.094,8,59,5.78
421,Région du Mayo-Kébbi Est,10.0,15.83,78.25999999999999,76,42,1.26
422,Pala,9.3642,14.9046,80.564,48,39,2.11
423,Beboto,8.2668,16.939,82.094,8,59,5.78
424,Bogomia I,7.7962,15.6682,79.394,8,57,4.63
425,Région du Mayo-Kébbi Ouest,9.33,14.75,80.564,48,39,2.11
426,Cabudare,10.0289,-69.0895,87.80000000000001,40,61,4.1
427,Sabana de Parra,10.1211,-69.0364,87.80000000000001,40,61,4.1
428,Yaritagua,10.08,-69.1262,87.80000000000001,40,61,4.1
429,Municipio Peña,10.08,-69.1262,87.80000000000001,40,61,4.1
430,Urachiche,10.1592,-69.0112,80.6,40,61,4.1
431,Chivacoa,10.1603,-68.895,80.6,40,61,4.1
432,Municipio Bruzual,10.1667,-68.8834,80.6,40,61,4.1
433,Los Rastrojos,10.0259,-69.2417,87.80000000000001,40,61,4.1
434,Sarare,9.7813,-69.1634,87.80000000000001,40,66,2.38
435,San Pablo,10.2483,-68.8446,80.6,40,61,4.1
436,Guama,10.2703,-68.8214,80.6,40,61,4.1
437,San Rafael de Onoto,9.6774,-68.9735,87.80000000000001,40,66,2.38
438,Barquisimeto,10.0739,-69.3228,87.80000000000001,40,61,4.1
439,Duaca,10.2859,-69.1623,80.6,40,61,4.1
440,Boraure,10.2493,-68.7696,80.6,40,61,4.1
441,Municipio Nirgua,10.0833,-68.6667,70.664,76,90,1.56
442,Municipio Sucre,10.3,-68.8334,80.6,40,61,4.1
443,Municipio Crespo,10.3,-69.1667,80.6,40,61,4.1
444,Agua Blanca,9.6615,-69.1076,87.80000000000001,40,66,2.38
445,Pueblo Nuevo,10.044,-69.3687,87.80000000000001,40,61,4.1
446,Brochet,57.88,-101.6719,-1.9300000000000068,8,80,4.31
447,Bijar,35.8668,47.6051,32.864,0,83,1.26
448,Ostān-e Zanjān,36.5,48.3333,31.856,88,93,1.58
449,Zanjan,36.6736,48.4787,31.856,88,93,1.58
450,Sāremsāqlū,36.7597,48.3703,31.856,88,93,1.58
451,Takab,36.4009,47.1133,27.41,44,81,1.03
452,Qorveh,35.1664,47.8045,35.924,48,82,1.26
453,Ostān-e Kordestān,35.6667,47.0,46.4,0,87,2.1
454,Khorram Darreh,36.213,49.196,33.494,48,94,1.26
455,Alvand,36.3187,49.1678,33.44,88,96,1.01
456,Abhar,36.1468,49.218,33.494,48,94,1.26
457,Sanandaj,35.3144,46.9923,46.4,0,87,2.1
458,Gerīzeh,35.258,47.0185,46.4,0,87,2.1
459,Bahar,34.9072,48.4414,46.4,75,61,2.1
460,Jūraqān,34.8849,48.5544,46.4,75,61,2.1
461,Asadabad,34.7824,48.1185,46.4,75,61,2.1
462,Sonqor,34.7837,47.6004,46.4,0,65,1.03
463,Ostān-e Hamadān,34.8333,48.5833,46.4,75,61,2.1
464,Hamadan,34.7992,48.5146,46.4,75,61,2.1
465,Azadshahr,34.7909,48.5707,46.4,75,61,2.1
466,Shahin Dezh,36.6793,46.5669,26.42,0,75,1.11
467,Puerto Chacabuco,-45.4667,-72.8167,37.4,90,86,2.1
468,Región Aisén del General Carlos Ibáñez del Campo,-46.5,-73.5,27.896,88,90,2.06
469,Puerto Aisen,-45.4001,-72.7,37.4,90,86,2.1
470,Coihaique,-45.5753,-72.0662,37.4,90,86,2.1
471,Balmaceda,-45.9167,-71.6834,37.4,90,86,2.1
472,Chile Chico,-46.55,-71.7334,35.51,88,65,4.88
473,Los Antiguos,-46.5498,-71.6309,34.844,76,68,10.08
474,Coihaique Alto,-45.4834,-71.6,37.4,90,86,2.1
475,Puerto Cisnes,-44.75,-72.7,34.79,92,100,2.83
476,Cochrane,-47.2557,-72.5696,36.5,64,78,1.78
477,Sucua,-2.4667,-78.1667,66.74000000000001,92,92,1.58
478,Provincia de Morona Santiago,-2.5,-77.75,66.74000000000001,92,92,1.58
479,Gualaquiza,-3.4,-78.5501,63.644,68,97,0.78
480,Macas,-2.3167,-78.1167,66.74000000000001,92,92,1.58
481,Musmus,-2.9334,-78.7667,59.0,75,82,4.1
482,Quimshi,-2.9,-78.7834,59.0,75,82,4.1
483,Gualaceo,-2.9,-78.7834,59.0,75,82,4.1
484,Opar,-2.7334,-78.8334,59.0,75,82,4.1
485,Azogues,-2.7334,-78.8334,59.0,75,82,4.1
486,Lecherón Yargín,-2.7,-78.8667,59.0,75,82,4.1
487,Miraflores,-2.8834,-78.9834,59.0,75,82,4.1
488,Cuenca,-2.8834,-78.9834,59.0,75,82,4.1
489,Cuchucún,-2.55,-78.9334,59.0,75,82,4.1
490,Canar,-2.55,-78.9334,59.0,75,82,4.1
491,Provincia del Cañar,-2.5,-79.0,59.0,75,82,4.1
492,Republic of Ecuador,-2.0,-77.5,69.08000000000001,80,99,1.56
493,Yantzaza,-3.8278,-78.7595,63.644,68,97,0.78
494,Alausi,-2.2,-78.8334,49.244,92,100,0.88
495,Palora,-1.7,-77.9334,61.519999999999996,92,100,0.43
496,Provincia del Chimborazo,-1.9167,-78.75,46.94,92,99,0.53
497,Syumsi,57.1111,51.6149,32.774,68,98,1.91
498,Malmyzh,56.5205,50.6818,32.144,80,100,3.53
499,Pakhotnaya,56.5116,50.696,32.45,88,99,2.38
500,Urzhum,57.1141,49.9996,23.125999999999998,12,81,2.33
501,Vavozh,56.7751,51.931,33.314,92,100,1.96
502,Petryayevo,57.1091,49.9819,23.125999999999998,12,81,2.33
503,Nema,57.5067,50.5011,27.806,0,95,1.91
504,Arkul,57.2808,50.044,23.125999999999998,12,81,2.33
505,Uva,56.9908,52.1852,33.314,92,100,1.96
506,Medvedok,57.3891,50.0351,24.62,0,90,2.36
507,Selty,57.3132,52.1345,30.83,8,97,2.18
508,Sosnovka,56.255,51.2842,32.45,88,99,2.38
509,Krasnaya Polyana,56.242,51.1442,32.45,88,99,2.38
510,Vyatskiye Polyany,56.226,51.0656,32.45,88,99,2.38
511,Kizner,56.2749,51.508,31.82,80,96,1.33
512,Mari-Turek,56.7895,49.6235,23.125999999999998,12,81,2.33
513,Baltasinskiy Rayon,56.3333,50.25,32.144,80,100,3.53
514,Baltasi,56.3462,50.2062,32.144,80,100,3.53
515,Uni,57.7535,51.4923,29.246,0,98,2.18
516,Nolinsk,57.5596,49.9363,24.62,0,90,2.36
517,Boulia,-22.2791,139.6253,79.61,0,45,4.06
518,Selwyn,-21.5334,140.5,78.674,0,48,4.03
519,Boulia,-22.9,139.9,79.574,0,47,4.03
520,Cloncurry,-20.6989,140.2711,79.78999999999999,0,45,3.81
521,Albany,-35.017,117.8917,58.064,0,91,3.16
522,Pampa de los Guanacos,-26.2334,-61.85,74.26400000000001,0,76,3.36
523,Los Frentones,-26.4077,-61.4137,72.374,0,84,1.71
524,Departamento de Copo,-26.0,-62.75,78.98,8,52,2.81
525,Monte Quemado,-25.8057,-62.8302,78.98,8,52,2.81
526,Departamento de Alberdi,-26.5,-62.75,79.07,0,50,4.13
527,Pampa del Infierno,-26.5052,-61.1744,72.374,0,84,1.71
528,Campo Gallo,-26.5834,-62.85,79.07,0,50,4.13
529,Concepcion del Bermejo,-26.5993,-60.9462,72.374,0,84,1.71
530,Santa María,-26.218,-63.2604,79.07,0,50,4.13
531,Tintina,-27.0334,-62.7167,76.91,0,54,3.13
532,Taco Pozo,-25.6167,-63.2834,78.98,8,52,2.81
533,Castelli,-25.9468,-60.6195,75.56,32,72,2.58
534,Campo Largo,-26.8008,-60.8422,72.644,0,82,2.33
535,Corzuela,-26.9538,-60.9693,72.23,0,83,2.61
536,Avia Terai,-26.6854,-60.7292,72.644,8,83,1.81
537,Colfax County,36.8756,-105.1262,68.0,1,13,8.2
538,Cuchara,37.3792,-105.1003,68.0,1,13,8.2
539,San Luis,37.2009,-105.4239,60.8,1,13,8.2
540,Trinidad,37.1695,-104.5006,68.0,1,13,8.2
541,Raton,36.9034,-104.4392,68.0,1,7,11.8
542,Cimarron,36.5109,-104.9159,68.0,1,16,11.3
543,Hebron,36.7386,-104.4659,68.0,1,7,11.8
544,Questa,36.7039,-105.5951,64.4,1,16,11.3
545,Hoehne,37.2811,-104.3811,68.0,1,10,4.1
546,Agua Fria,36.43,-105.2989,64.4,1,16,11.3
547,Walsenburg,37.6242,-104.7803,68.0,1,13,8.2
548,Angel Fire,36.3931,-105.2851,64.4,1,16,11.3
549,Arroyo Seco,36.5167,-105.5692,64.4,1,16,11.3
550,Huerfano County,37.6833,-104.9506,51.8,1,13,8.2
551,Taos Pueblo,36.4386,-105.5445,64.4,1,16,11.3
552,Springer,36.3611,-104.5953,68.0,1,16,11.3
553,Taos,36.4072,-105.5731,64.4,1,16,11.3
554,Taylor Springs,36.3273,-104.4923,68.0,1,7,11.8
555,Ranchos de Taos,36.3586,-105.6095,64.4,1,16,11.3
556,Conejos,37.0883,-106.0198,60.8,1,6,9.3
557,Boca Suno,-0.7167,-77.1334,78.80000000000001,75,88,2.1
558,Puerto Francisco de Orellana,-0.4667,-76.9667,78.80000000000001,75,88,2.1
559,Provincia de Francisco de Orellana,-0.75,-76.4167,72.41,76,95,1.38
560,Archidona,-0.9167,-77.8001,60.89,92,99,0.76
561,Tena,-0.9834,-77.8167,60.89,92,99,0.76
562,Provincia de Napo,-0.6667,-77.8334,50.72,88,95,0.76
563,Provincia del Pastaza,-1.9167,-77.0,73.58000000000001,68,89,1.48
564,San Pablo de Kantesiya,-0.25,-76.4334,78.80000000000001,75,88,2.1
565,Shushufindi,-0.0334,-77.0667,78.80000000000001,75,88,2.1
566,Teniente Hugo Ortiz,-1.4,-77.95,60.89,92,99,0.76
567,Puyo,-1.4667,-77.9834,60.89,92,99,0.76
568,Nueva Loja,0.0847,-76.8828,78.80000000000001,75,88,2.1
569,Provincia de Sucumbíos,0.1,-76.8667,78.80000000000001,75,88,2.1
570,Republic of Ecuador,-2.0,-77.5,69.08000000000001,80,99,1.56
571,San Jacinto,0.0569,-76.5576,69.62,88,98,0.98
572,Palora,-1.7,-77.9334,61.519999999999996,92,100,0.43
573,San Miguel,0.3431,-76.9113,68.594,76,95,0.93
574,Insiza,-19.7834,29.2,65.44399999999999,8,69,3.76
575,Esigodini,-20.2898,28.9226,64.75999999999999,20,68,3.28
576,Inyathi,-19.6757,28.8469,71.33000000000001,92,44,2.51
577,Umvutcha A,-20.052,28.5886,71.33000000000001,92,44,2.51
578,Shangani,-19.7834,29.3667,65.44399999999999,8,69,3.76
579,Bulawayo Province,-20.15,28.5833,64.75999999999999,20,68,3.28
580,Bulawayo,-20.15,28.5833,64.75999999999999,20,68,3.28
581,Filabusi,-20.5334,29.285,64.31,0,77,3.08
582,Gwanda,-20.9334,29.0,67.46000000000001,0,74,3.68
583,Gweru,-19.4501,29.8167,70.61,100,59,1.78
584,Republic of Zimbabwe,-19.0,29.0,60.35,0,80,1.38
585,Shurugwi,-19.6702,30.0059,62.6,44,87,2.81
586,Zvishavane,-20.3268,30.0665,62.06,0,90,2.11
587,Plumtree,-20.4834,27.8167,72.32,92,47,2.13
588,Redcliff,-19.0334,29.7833,70.61,100,59,1.78
589,Lalapanzi,-19.3323,30.1777,70.61,100,59,1.78
590,Kwekwe,-18.9282,29.8149,70.61,100,59,1.78
591,Arivonimamo,-19.0167,47.1833,66.2,75,82,3.6
592,Soavinandriana,-19.1667,46.7333,55.94,36,92,1.28
593,Faratsiho,-19.4,46.95,55.94,36,92,1.28
594,Namontana,-18.9167,47.5167,66.2,75,82,3.6
595,Ambaravarambato,-18.9167,47.5167,66.2,75,82,3.6
596,Ivato,-18.8,47.4833,66.2,75,82,3.6
597,Antananarivo,-18.9137,47.5361,66.2,75,82,3.6
598,Ambatolampy,-19.3834,47.4167,66.2,75,82,3.6
599,Ankazobe,-18.3167,47.1167,66.2,75,82,3.6
600,Fenoarivo Be,-18.4334,46.5667,58.694,8,99,2.68
601,Antanifotsy,-19.65,47.3167,58.1,68,96,1.13
602,Analamanga,-18.4501,47.5,66.2,75,82,3.6
603,Manjakandriana,-18.9167,47.8,66.2,75,82,3.6
604,Antanetikely,-19.8167,47.0667,52.214,20,88,1.16
605,Betafo,-19.8334,46.85,52.214,20,88,1.16
606,Antsirabe,-19.85,47.0333,52.214,20,88,1.16
607,Tsiroanomandidy,-18.7667,46.0333,58.82,24,91,1.56
608,Republic of Madagascar,-20.0,47.0,52.214,20,88,1.16
609,Anjozorobe,-18.4,47.8667,66.2,75,82,3.6
610,Moramanga,-18.9334,48.2,63.373999999999995,64,100,1.01
611,Edd,13.9297,41.6925,71.474,36,61,0.76
612,Zoba Debubawī K’eyih Bahrī,13.75,41.5,71.474,36,61,0.76
613,Mai-ti,13.0,42.2167,69.044,0,86,1.03
614,Al Tuhayta,14.1836,43.2264,73.85,0,70,1.28
615,Ad Durayhimi,14.637,43.0551,73.85,0,70,1.28
616,As Sal‘ah,14.7352,42.9962,73.85,0,57,1.81
617,Ḩārat al Bustān,14.7992,42.9515,73.85,0,57,1.81
618,Al Hudaydah,14.7978,42.9545,73.85,0,57,1.81
619,Assab,13.0092,42.7394,78.314,0,91,8.98
620,Al Mina,14.8522,42.9099,73.85,0,57,1.81
621,Al Khawkhah,13.8071,43.2493,78.53,0,91,5.73
622,Al Hawak,14.7601,42.9978,73.85,0,57,1.81
623,Zabid,14.1951,43.3152,73.85,0,70,1.28
624,Bayt al Faqīh,14.4874,43.2781,73.85,0,70,1.28
625,Cockenzie,55.9682,-2.9657,35.6,0,86,1.0
626,Prestonpans,55.9594,-2.9804,35.6,0,86,1.0
627,Tranent,55.9444,-2.9542,35.6,0,86,1.0
628,Longniddry,55.9754,-2.896,35.6,0,86,1.0
629,Musselburgh,55.9417,-3.05,35.6,0,86,1.0
630,Macmerry,55.9404,-2.9051,35.6,0,86,1.0
631,Seafield,55.9667,-3.15,35.6,0,86,1.0
632,Ormiston,55.913,-2.9399,35.6,0,86,1.0
633,Gullane,56.0354,-2.8296,35.6,0,86,1.0
634,Pencaitland,55.9073,-2.8949,35.6,0,86,1.0
635,Dalkeith,55.8934,-3.0639,35.6,0,86,1.0
636,City of Edinburgh,55.9497,-3.1934,35.6,0,86,1.0
637,Edinburgh,55.9521,-3.1965,35.6,0,86,1.0
638,Kinghorn,56.069,-3.1761,35.6,0,86,1.0
639,Haddington,55.9561,-2.7834,35.6,0,86,1.0
640,Bonnyrigg,55.8733,-3.1052,35.6,0,86,1.0
641,Kirkcaldy,56.1098,-3.1615,35.6,0,86,1.0
642,Burntisland,56.0625,-3.2318,35.6,0,86,1.0
643,Loanhead,55.8795,-3.1588,35.6,0,86,1.0
644,Gorebridge,55.8459,-3.0457,35.6,0,86,1.0
645,Unalaska,53.8736,-166.5367,35.6,90,59,5.7
646,Dutch Harbor,53.8898,-166.5423,35.6,90,59,5.7
647,Popondetta,-8.7537,148.2534,77.99000000000001,24,80,0.88
648,Kakandetta,-8.7667,148.2333,77.99000000000001,24,80,0.88
649,Kokoda,-8.8786,147.7407,73.4,0,76,1.01
650,Northern Province,-9.0,148.5,81.464,24,100,1.26
651,Parent,47.9168,-74.6159,22.64,92,76,4.76
652,Mauricie,47.5501,-73.4159,33.674,92,89,3.58
653,Manouane,47.2121,-74.394,30.29,92,95,1.73
654,La Tuque,47.4334,-72.7825,33.89,88,86,4.76
655,Monet,48.1669,-75.6493,18.14,88,71,6.21
656,Sainte-Hedwidge,48.4834,-72.3492,14.0,90,92,3.1
657,Lac-Édouard,47.6501,-72.2659,31.28,92,88,4.61
658,Saint-Felicien,48.6501,-72.4491,14.0,90,92,3.1
659,Lac-Chat,47.1668,-72.6492,33.89,88,86,4.76
660,Lanaudière,46.7668,-73.8325,31.046,68,74,4.81
661,Lac-Bouchette,48.2501,-72.1825,14.0,90,92,3.1
662,Saint-Prime,48.5834,-72.3325,14.0,90,92,3.1
663,Didyme,48.9,-72.6657,14.0,90,92,3.1
664,Normandin,48.8333,-72.5321,14.0,90,92,3.1
665,Roberval,48.5168,-72.2325,14.0,90,92,3.1
666,Saint-François-de-Sales,48.3168,-72.1325,14.0,90,92,3.1
667,Saint-Michel-des-Saints,46.6834,-73.9159,31.046,68,74,4.81
668,Saint-Michel-des-Saints,46.6757,-73.9164,31.046,68,74,4.81
669,Sucre,2.0381,-76.9245,55.544,88,94,0.46
670,Patia,2.069,-77.0528,55.544,88,94,0.46
671,El Bordo,2.117,-76.9822,59.414,92,95,0.38
672,Almaguer,1.917,-76.8524,55.544,88,94,0.46
673,La Vega,2.0063,-76.7803,55.544,88,94,0.46
674,Balboa,2.0396,-77.2169,65.48,88,98,0.71
675,Mercaderes,1.8009,-77.166,62.6,90,93,2.1
676,La Sierra,2.1784,-76.7627,59.414,92,95,0.38
677,Leiva,1.9339,-77.3026,62.6,90,93,2.1
678,Florencia,1.6832,-77.0734,62.6,90,93,2.1
679,San Pablo,1.6725,-77.0139,62.6,90,93,2.1
680,Argelia,2.2556,-77.2488,68.81,92,96,0.71
681,Genova,1.6432,-77.0244,62.6,90,93,2.1
682,Rosas,2.2609,-76.7399,59.414,92,95,0.38
683,La Cruz,1.603,-76.9691,62.6,90,93,2.1
684,Belen,1.5979,-77.014,62.6,90,93,2.1
685,La Union,1.6045,-77.1316,62.6,90,93,2.1
686,El Rosario,1.7417,-77.3352,62.6,90,93,2.1
687,Cartago,1.5631,-77.1176,62.6,90,93,2.1
688,Paispamba,2.2546,-76.6109,59.414,92,95,0.38
689,Kangboi,1.0833,104.05,78.80000000000001,75,88,1.0
690,Singapore,1.2897,103.8501,78.80000000000001,75,88,1.0
691,Tampines Estate,1.3581,103.9403,78.80000000000001,75,88,1.0
692,Tanglin Halt,1.3014,103.7975,78.80000000000001,75,88,1.0
693,Kampong Siren,1.3522,103.8981,78.80000000000001,75,88,1.0
694,Chinese Gardens,1.3114,103.7978,78.80000000000001,75,88,1.0
695,Punggol Estate,1.3628,103.9083,78.80000000000001,75,88,1.0
696,Kampong Pasir Ris,1.3783,103.9319,78.80000000000001,75,88,1.0
697,Somapah Serangoon,1.3667,103.8833,78.80000000000001,75,88,1.0
698,Bright Hill Crescent,1.35,103.8333,78.80000000000001,75,88,1.0
699,Thomson Park,1.3572,103.8364,78.80000000000001,75,88,1.0
700,Republic of Singapore,1.3667,103.8,78.80000000000001,75,88,1.0
701,Seletar,1.41,103.8742,78.80000000000001,75,88,1.0
702,Tanjungpinang,0.9167,104.45,80.96000000000001,0,94,2.93
703,Chye Kay,1.4261,103.8242,78.80000000000001,75,88,1.0
704,Kampung Pasir Gudang Baru,1.4726,103.878,78.80000000000001,75,88,1.0
705,Woodlands New Town,1.4444,103.7767,78.80000000000001,75,88,1.0
706,Johor Bahru,1.4655,103.7578,78.80000000000001,75,88,1.0
707,Kampung Kubur,1.4651,103.7526,78.80000000000001,75,88,1.0
708,Kampung Paya Kenangan,1.5415,103.7513,78.80000000000001,75,88,1.0
709,Magugu,-4.0167,35.7667,63.194,92,98,0.33
710,Galappo,-4.2667,35.85,63.194,92,98,0.33
711,Babati,-4.2167,35.75,63.194,92,98,0.33
712,Mbulu,-3.85,35.5333,63.59,88,100,2.46
713,Dareda,-4.2167,35.55,58.370000000000005,88,96,0.71
714,Dongobesh,-4.0667,35.3833,58.370000000000005,88,96,0.71
715,Bashanet,-4.2334,35.4167,58.370000000000005,88,96,0.71
716,Endasak,-4.4167,35.5167,58.370000000000005,88,96,0.71
717,Mto wa Mbu,-3.35,35.85,64.13,88,100,0.61
718,Nangwa,-4.4667,35.45,58.370000000000005,88,96,0.71
719,Karatu,-3.3334,35.6667,63.59,88,100,2.46
720,Katesh,-4.5167,35.3833,62.78,8,88,3.23
721,Monduli,-3.3,36.45,68.0,75,93,4.1
722,Ngorongoro,-3.2398,35.4875,59.99,92,92,0.38
723,Marombosa,-3.3667,36.6667,68.0,75,93,4.1
724,Kondoa,-4.9,35.7833,62.150000000000006,36,94,1.46
725,Arusha,-3.3667,36.6833,68.0,75,93,4.1
726,Naberera,-4.2,36.9333,66.2,92,97,1.93
727,Basotu,-4.3667,35.0833,59.324,64,93,1.36
728,Arusha Region,-3.0,36.0,59.36,92,99,1.03
729,Puerto Rondon,6.2805,-71.1,84.074,88,60,1.83
730,Departamento de Arauca,6.6667,-71.0,78.80000000000001,75,83,2.23
731,Departamento de Casanare,5.5,-71.5,76.51400000000001,36,86,1.61
732,Municipio Hato Corozal,6.1568,-71.7638,69.76400000000001,36,86,0.53
733,La Primavera,5.4906,-70.4092,75.83000000000001,56,91,1.93
734,Cravo Norte,6.3017,-70.2042,85.51400000000001,92,56,1.28
735,Trinidad,5.4306,-71.6312,76.51400000000001,36,86,1.61
736,Tame,6.461,-71.7301,59.594,48,100,0.43
737,El Banco,5.4333,-71.6501,76.51400000000001,36,86,1.61
738,San Luis de Palenque,5.4214,-71.7317,76.91,64,83,0.46
739,Caserío Regalito,5.5637,-71.8914,76.91,64,83,0.46
740,Pore,5.7272,-71.9948,69.76400000000001,36,86,0.53
741,San Carlos,7.0731,-70.748,78.80000000000001,75,83,2.78
742,Municipio de Fortul,6.7928,-71.7717,59.594,48,100,0.43
743,Arauca,7.0847,-70.7591,78.80000000000001,75,83,2.78
744,Arauquita,7.0292,-71.4281,75.74000000000001,8,86,1.03
745,La Habana,7.0939,-70.7601,78.80000000000001,75,83,2.78
746,Tamara,5.8297,-72.1634,69.76400000000001,36,86,0.53
747,Villanueva,5.2833,-71.9667,76.91,64,83,0.46
748,Vara de María,7.2015,-70.7622,78.80000000000001,75,83,2.78
749,Solnechnyy,60.4167,137.5,31.28,64,58,2.13
750,Puvirnituq,60.0338,-77.2825,1.3999999999999986,75,84,5.1
751,Akulivik,60.8006,-78.1994,4.045999999999999,64,81,6.46
